[{
  "_id": {
    "$oid": "64f5f0c7875a5086c28cc659"
  },
  "name": "Dynasty Song Hành - TP. Thủ Đức",
  "location": "81 Song Hành, Phường An Phú , Quận 2, Hồ Chí Minh",
  "phone": "1900 633 606",
  "city": "Hồ Chí Minh",
  "cityId": 79,
  "district": "Quận 2",
  "districtId": 769,
  "ward": "Phường An Phú",
  "wardId": 27091
},
{
  "_id": {
    "$oid": "64f5f0e1875a5086c28cc65b"
  },
  "name": "Dynasty Estella - TP. Thủ Đức",
  "location": "Tầng 4, TTTM Estilla , 88 Song Hành, P An Phú, Quận 2, HCM",
  "phone": "1900 633 606",
  "city": "Hồ Chí Minh",
  "cityId": 79,
  "district": "Quận 2",
  "districtId": 769,
  "ward": "Phường An Phú",
  "wardId": 27091
},
{
  "_id": {
    "$oid": "64f5f0fb875a5086c28cc65d"
  },
  "name": "Dynasty Nguyễn Thị Minh Khai - Q.3",
  "location": "506 - 508 Nguyễn Thị Minh Khai, Phường 2, Quận 3, Hồ Chí Minh",
  "phone": "1900 633 606",
  "city": "Hồ Chí Minh",
  "cityId": 79,
  "district": "Quận 3",
  "districtId": 770,
  "ward": "Phường 2",
  "wardId": 27157
},
{
  "_id": {
    "$oid": "64f5f265604c841d6d7bf900"
  },
  "name": "Dynasty Lê Văn Sỹ - Q.3",
  "location": "333 Lê Văn Sỹ, Phường 13, Quận 3, Hồ Chí Minh",
  "phone": "1900 633 606",
  "city": "Hồ Chí Minh",
  "cityId": 79,
  "district": "Quận 3",
  "districtId": 770,
  "ward": "Phường 13",
  "wardId": 27136
},
{
  "_id": {
    "$oid": "64f5f27a604c841d6d7bf902"
  },
  "name": "Dynasty Bà Hom - Q.6",
  "location": "64A1 - 64A2, Bà Hom, Phường 13, Quận 6, Thành phố Hồ Chí Minh",
  "phone": "1900 633 606",
  "city": "Hồ Chí Minh",
  "cityId": 79,
  "district": "Quận 6",
  "districtId": 775,
  "ward": "Phường 13",
  "wardId": 27349
},
{
  "_id": {
    "$oid": "64f5f298604c841d6d7bf904"
  },
  "name": "Dynasty Hậu Giang - Q.6",
  "location": "167 Đường Hậu Giang, Phường 5, Quận 6, Thành phố Hồ Chí Minh",
  "phone": "1900 633 606",
  "city": "Hồ Chí Minh",
  "cityId": 79,
  "district": "Quận 6",
  "districtId": 775,
  "ward": "Phường 5",
  "wardId": 27361
},
{
  "_id": {
    "$oid": "64f5f358604c841d6d7bf906"
  },
  "name": "Dynasty Huỳnh Tấn Phát - Q.7",
  "location": "346 Huỳnh Tấn Phát, Bình Thuận, Quận 7, Thành phố Hồ Chí Minh",
  "phone": "1900 633 606",
  "city": "Hồ Chí Minh",
  "cityId": 79,
  "district": "Quận 7",
  "districtId": 778,
  "ward": "Bình Thuận",
  "wardId": 27478
},
{
  "_id": {
    "$oid": "64f5f36f604c841d6d7bf908"
  },
  "name": "Dynasty Co.op Mart Huỳnh Tấn Phát - Q.7",
  "location": "Co.opmart Huỳnh Tấn Phát: 80/4A Huỳnh Tấn Phát, Phường Phú Mỹ, Quận 7, Hồ Chí Minh",
  "phone": "1900 633 606",
  "city": "Hồ Chí Minh",
  "cityId": 79,
  "district": "Quận 7",
  "districtId": 778,
  "ward": "Phú Mỹ",
  "wardId": 27493
},
{
  "_id": {
    "$oid": "64f5f380604c841d6d7bf90a"
  },
  "name": "Dynasty Nguyễn Đức Cảnh - Q.7",
  "location": "101 Nguyễn Đức Cảnh, Tân Phong, Quận 7, Thành phố Hồ Chí Minh",
  "phone": "1900 633 606",
  "city": "Hồ Chí Minh",
  "cityId": 79,
  "district": "Quận 7",
  "districtId": 778,
  "ward": "Tân Phong",
  "wardId": 27490
},
{
  "_id": {
    "$oid": "64f5f39a604c841d6d7bf90c"
  },
  "name": "Dynasty Crescent Mall - Q.7",
  "location": "Crescent Mall, Tầng 5, 101 Tôn Dật Tiên, Tân Phú, Quận 7, Thành phố Hồ Chí Minh",
  "phone": "1900 633 606",
  "city": "Hồ Chí Minh",
  "cityId": 79,
  "district": "Quận 7",
  "districtId": 778,
  "ward": "Tân Phú",
  "wardId": 27487
},
{
  "_id": {
    "$oid": "64f5f3b4604c841d6d7bf90e"
  },
  "name": "Dynasty Phạm Hùng - Q.8",
  "location": "322B Phạm Hùng, Phường 5, Quận 8, Thành phố Hồ Chí Minh",
  "phone": "1900 633 606",
  "city": "Hồ Chí Minh",
  "cityId": 79,
  "district": "Quận 8",
  "districtId": 776,
  "ward": "Phường 5",
  "wardId": 27418
},
{
  "_id": {
    "$oid": "64f5f3c9604c841d6d7bf910"
  },
  "name": "Dynasty Quốc Lộ 50 - Q.8",
  "location": "310 - 312 Quốc Lộ 50, P. 6, Quận 8, TP. HCM",
  "phone": "1900 633 606",
  "city": "Hồ Chí Minh",
  "cityId": 79,
  "district": "Quận 8",
  "districtId": 776,
  "ward": "Phường 6",
  "wardId": 27424
},
{
  "_id": {
    "$oid": "64f5f3f5604c841d6d7bf912"
  },
  "name": "Dynasty Vạn Hạnh Mall - Q.10",
  "location": "11 Sư Vạn Hạnh, Phường 12, Quận 10, Thành phố Hồ Chí Minh",
  "phone": "1900 633 606",
  "city": "Hồ Chí Minh",
  "cityId": 79,
  "district": "Quận 10",
  "districtId": 771,
  "ward": "Phường 12",
  "wardId": 27172
},
{
  "_id": {
    "$oid": "64f5f440604c841d6d7bf918"
  },
  "name": "Dynasty Hòa Bình - Q.11",
  "location": "80 Hòa Bình, Phường 5, Quận 11, Thành phố Hồ Chí Minh",
  "phone": "1900 633 606",
  "city": "Hồ Chí Minh",
  "cityId": 79,
  "district": "Quận 11",
  "districtId": 772,
  "ward": "Phường 5",
  "wardId": 27211
},
{
  "_id": {
    "$oid": "64f5f45c604c841d6d7bf91a"
  },
  "name": "Dynasty Phan Xích Long - Q. Phú Nhuận",
  "location": "355 Phan Xích Long, Phường 1, Phú Nhuận, Thành phố Hồ Chí Minh",
  "phone": "1900 633 606",
  "city": "Hồ Chí Minh",
  "cityId": 79,
  "district": "Phú Nhuận",
  "districtId": 768,
  "ward": "Phường 1",
  "wardId": 27058
},
{
  "_id": {
    "$oid": "64f5f472604c841d6d7bf91c"
  },
  "name": "Dynasty Nguyễn Gia Trí - Q. Bình Thạnh",
  "location": "183 Đ. Nguyễn Gia Trí, Phường 25, Bình Thạnh, Thành phố Hồ Chí Minh",
  "phone": "1900 633 606",
  "city": "Hồ Chí Minh",
  "cityId": 79,
  "district": "Bình Thạnh",
  "districtId": 765,
  "ward": "Phường 25",
  "wardId": 26920
},
{
  "_id": {
    "$oid": "64f5f487604c841d6d7bf91e"
  },
  "name": "Dynasty Hoàng Hoa Thám - Q. Bình Thạnh",
  "location": "10D Hoàng Hoa Thám, Phường 7, Bình Thạnh, Thành phố Hồ Chí Minh",
  "phone": "1900 633 606",
  "city": "Hồ Chí Minh",
  "cityId": 79,
  "district": "Bình Thạnh",
  "districtId": 765,
  "ward": "Phường 7",
  "wardId": 26926
},
{
  "_id": {
    "$oid": "64f5f497604c841d6d7bf920"
  },
  "name": "Dynasty Lê Đại Hành - Q.11",
  "location": "Lô 4, Khu B, Căn Số 7, Chung Cư Phú Thọ, Lê Đại Hành, P.15, Quận 11, HCM",
  "phone": "1900 633 606",
  "city": "Hồ Chí Minh",
  "cityId": 79,
  "district": "Quận 11",
  "districtId": 772,
  "ward": "Phường 15",
  "wardId": 27208
},
{
  "_id": {
    "$oid": "64f5f4b0604c841d6d7bf922"
  },
  "name": "Dynasty Thống Nhất - Q. Gò Vấp",
  "location": "452A Thống Nhất, P.16, Quận Gò Vấp, HCM",
  "phone": "1900 633 606",
  "city": "Hồ Chí Minh",
  "cityId": 79,
  "district": "Quận Gò Vấp",
  "districtId": 764,
  "ward": "Phường 16",
  "wardId": 26878
},
{
  "_id": {
    "$oid": "64f5f4c0604c841d6d7bf924"
  },
  "name": "Dynasty Quang Trung - Q. Gò Vấp",
  "location": "638 Quang Trung, Phường 11, Quận Gò Vấp, Hồ Chí Minh",
  "phone": "1900 633 606",
  "city": "Hồ Chí Minh",
  "cityId": 79,
  "district": "Quận Gò Vấp",
  "districtId": 764,
  "ward": "Phường 11",
  "wardId": 26899
},
{
  "_id": {
    "$oid": "64f5f4cf604c841d6d7bf928"
  },
  "name": "Dynasty Phan Văn Trị - Q. Gò Vấp",
  "location": "527J Phan Văn Trị , P 5, Quận Gò Vấp , HCM",
  "phone": "1900 633 606",
  "city": "Hồ Chí Minh",
  "cityId": 79,
  "district": "Quận Gò Vấp",
  "districtId": 764,
  "ward": "Phường 5",
  "wardId": 26887
},
{
  "_id": {
    "$oid": "64f5f4e3604c841d6d7bf92a"
  },
  "name": "Dynasty Võ Văn Ngân - TP. Thủ Đức",
  "location": "26-28-30 Võ Văn Ngân, Phường Trường Thọ, Quận Thủ Đức, Hồ Chí Minh",
  "phone": "1900 633 606",
  "city": "Hồ Chí Minh",
  "cityId": 79,
  "district": "Quận Thủ Đức",
  "districtId": 769,
  "ward": "Phường Trường Thọ",
  "wardId": 26827
},
{
  "_id": {
    "$oid": "64f5f4f6604c841d6d7bf92c"
  },
  "name": "Dynasty Sense City Phạm Văn Đồng - TP. Thủ Đức",
  "location": "Giga Mall - TTTM Sense City Phạm Văn Đồng: L3-03, 240-242 Kha Vạn Cân - Phạm Văn Đồng, Phường Hiệp Bình Chánh, Quận Thủ Đức, Hồ Chí Minh",
  "phone": "1900 633 606",
  "city": "Hồ Chí Minh",
  "cityId": 79,
  "district": "Quận Thủ Đức",
  "districtId": 769,
  "ward": "Phường Hiệp Bình Chánh",
  "wardId": 26812
},
{
  "_id": {
    "$oid": "64f5f50c604c841d6d7bf92e"
  },
  "name": "Dynasty Bàu Cát - Q. Tân Bình",
  "location": "207-209 Bàu Cát, Phường 13, Quận Tân Bình, Hồ Chí Minh",
  "phone": "1900 633 606",
  "city": "Hồ Chí Minh",
  "cityId": 79,
  "district": "Quận Tân Bình",
  "districtId": 766,
  "ward": "Phường 13",
  "wardId": 26974
},
{
  "_id": {
    "$oid": "64f5f51f604c841d6d7bf930"
  },
  "name": "Dynasty Tân Sơn Nhì - Q. Tân Phú",
  "location": "456A Tân Sơn Nhì, Phường Tân Quý, Quận Tân Phú, Hồ Chí Minh",
  "phone": "1900 633 606",
  "city": "Hồ Chí Minh",
  "cityId": 79,
  "district": "Quận Tân Phú",
  "districtId": 767,
  "ward": "Phường Tân Quý",
  "wardId": 27019
},
{
  "_id": {
    "$oid": "64f744cafc5da7b5a3669020"
  },
  "name": "Dynasty Lê Văn Sỹ - Q. Tân Bình",
  "location": "515 Lê Văn Sỹ, Phường 2, Quận Tân Bình, Hồ Chí Minh",
  "phone": "1900 633 606",
  "cityId": 79,
  "city": "Thành phố Hồ Chí Minh",
  "districtId": 766,
  "district": "Quận Tân Bình",
  "ward": "Phường 2",
  "wardId": 26965
},
{
  "_id": {
    "$oid": "64f74e41fc5da7b5a3669082"
  },
  "name": "Dynasty AEON Mall Tân Phú - Q. Tân Phú",
  "location": "TTTM AEON Mall Tân Phú: Tầng 3, 30 Bờ Bao Tân Thắng, Phường Sơn Kỳ, Quận Tân Phú, Hồ Chí Minh",
  "phone": "1900 633 606",
  "cityId": 79,
  "city": "Thành phố Hồ Chí Minh",
  "districtId": 767,
  "district": "Quận Tân Phú",
  "ward": "Phường Sơn Kỳ",
  "wardId": 27016
},
{
  "_id": {
    "$oid": "64f74ea5fc5da7b5a3669086"
  },
  "name": "Dynasty Lê Văn Quới - Q. Bình Tân",
  "location": "239 Lê Văn Quới, Phường Bình Trị Đông, Quận Bình Tân, Hồ Chí Minh",
  "phone": "1900 633 606",
  "cityId": 79,
  "city": "Thành phố Hồ Chí Minh",
  "districtId": 777,
  "district": "Quận Bình Tân",
  "ward": "Phường Bình Trị Đông",
  "wardId": 27445
},
{
  "_id": {
    "$oid": "64f74f0cfc5da7b5a366908a"
  },
  "name": "Dynasty Nguyễn Ảnh Thủ - Huyện Hóc Môn",
  "location": "75/3-75/4 Nguyễn Ánh Thủ, Ấp Vạn Hạnh, Xã Trung Chánh, Huyện Hóc Môn, Hồ Chí Minh",
  "phone": "1900 633 606",
  "cityId": 79,
  "city": "Thành phố Hồ Chí Minh",
  "districtId": 784,
  "district": "Huyện Hóc Môn",
  "ward": "Xã Trung Chánh",
  "wardId": 27586
},
{
  "_id": {
    "$oid": "64f74f9afc5da7b5a366908c"
  },
  "name": "Dynasty Vincom Biên Hòa - TP. Biên Hoà",
  "location": "TTTM Vincom Biên Hòa: Tầng 5, 1096 Phạm Văn Thuận, Phường Tân Mai, Thành phố Biên Hoà, Tỉnh Đồng Nai",
  "phone": "1900 633 606",
  "cityId": 75,
  "city": "Tỉnh Đồng Nai",
  "districtId": 731,
  "district": "Thành phố Biên Hoà",
  "ward": "Phường Tân Mai",
  "wardId": 26026
},
{
  "_id": {
    "$oid": "64f75006fc5da7b5a366908e"
  },
  "name": "Dynasty Vincom Long Xuyên - TP. Long Xuyên",
  "location": "TTTM Vincom Long Xuyên: Gian hàng L5-06+07, 1242 Trần Hưng Đạo, Phường Mỹ Bình, Thành phố Long Xuyên, Tỉnh An Giang",
  "phone": "1900 633 606",
  "cityId": 89,
  "city": "Tỉnh An Giang",
  "districtId": 883,
  "district": "Thành phố Long Xuyên",
  "ward": "Phường Mỹ Bình",
  "wardId": 30280
},
{
  "_id": {
    "$oid": "64f7508afc5da7b5a3669090"
  },
  "name": "Dynasty Sense City Bến Tre - TP. Bến Tre",
  "location": "TTTM Sense City Bến Tre: Tầng 1, Co.op Mart Bến Tre, 26A Trần Quốc Tuấn, Phường 4, Thành phố Bến Tre, Tỉnh Bến Tre",
  "phone": "1900 633 606",
  "cityId": 83,
  "city": "Tỉnh Bến Tre",
  "districtId": 829,
  "district": "Thành phố Bến Tre",
  "ward": "Phường 4",
  "wardId": 28765
},
{
  "_id": {
    "$oid": "64f750dafc5da7b5a3669092"
  },
  "name": "Dynasty Sense City Cần Thơ - Q. Ninh Kiều",
  "location": "TTTM Sense City Cần Thơ: L2-04, 1 Đại lộ Hoà Bình, Phường Tân An, Quận Ninh Kiều, Tỉnh Cần Thơ",
  "phone": "1900 633 606",
  "cityId": 92,
  "city": "Tỉnh Cần Thơ",
  "districtId": 916,
  "district": "Quận Ninh Kiều",
  "ward": "Phường Tân An",
  "wardId": 31135
},
{
  "_id": {
    "$oid": "64f7512cfc5da7b5a3669094"
  },
  "name": "Dynasty Big C Mỹ Tho - TP. Mỹ Tho",
  "location": "TTTM Big C Mỹ Tho: Tầng trệt, 545 Lê Văn Phẩm, Phường 5, Thành phố Mỹ Tho, Tỉnh Tiền Giang",
  "phone": "1900 633 606",
  "cityId": 82,
  "city": "Tỉnh Tiền Giang",
  "districtId": 815,
  "district": "Thành phố Mỹ Tho",
  "ward": "Phường 5",
  "wardId": 28249
},
{
  "_id": {
    "$oid": "64f75301fc5da7b5a366909a"
  },
  "name": "Dynasty Khu Hòa Bình - TP. Đà Lạt",
  "location": "1A Nam Kỳ Khởi Nghĩa, Khu Hòa Bình, Thành phố Đà Lạt, Tỉnh Lâm Đồng",
  "phone": "1900 633 606",
  "cityId": 68,
  "city": "Tỉnh Lâm Đồng",
  "districtId": 672,
  "district": "Thành phố Đà Lạt",
  "ward": "Phường 1",
  "wardId": 24784
},
{
  "_id": {
    "$oid": "64f75372fc5da7b5a366909e"
  },
  "name": "Dynasty Vincom Buôn Ma Thuột - TP. Buôn Ma Thuột",
  "location": "TTTM Vincom BMT, 78 Lý Thường Kiệt, P.Thắng Lợi, TP BMT , Tỉnh Daklak",
  "phone": "1900 633 606",
  "cityId": 66,
  "city": "Tỉnh Daklak",
  "districtId": 643,
  "district": "TP Buôn Ma Thuột",
  "ward": "Phường Thắng Lợi",
  "wardId": 24133
},
{
  "_id": {
    "$oid": "64f753eefc5da7b5a36690a0"
  },
  "name": "Dynasty Võ Thị Sáu - TP. Vũng Tàu",
  "location": "147 Võ Thị Sáu, Phường 2, Thành phố Vũng Tàu, Tỉnh Bà Rịa Vũng Tàu",
  "phone": "1900 633 606",
  "cityId": 77,
  "city": "Tỉnh Bà Rịa Vũng Tàu",
  "districtId": 747,
  "district": "Thành phố Vũng Tàu",
  "ward": "Phường 2",
  "wardId": 26509
},
{
  "_id": {
    "$oid": "64f754a7fc5da7b5a36690a7"
  },
  "name": "Dynasty Cầu Giấy - Q. Cầu Giấy",
  "location": "333 Cầu Giấy, P.Dịch Vọng, Q.Cầu Giấy , TP Hà Nội",
  "phone": "1900 633 606",
  "cityId": 1,
  "city": "Thành Phố Hà Nội",
  "districtId": 5,
  "district": "Quận Cầu Giấy",
  "ward": "Phường Dịch Vọng",
  "wardId": 166
},
{
  "_id": {
    "$oid": "64f7553cfc5da7b5a36690a9"
  },
  "name": "Dynasty Times City - Q. Hai Bà Trưng",
  "location": "458 Minh Khai, P Vĩnh Tuy , Q.Hai Bà Trưng, TP Hà Nội",
  "phone": "1900 633 606",
  "cityId": 1,
  "city": "Thành Phố Hà Nội",
  "districtId": 7,
  "district": "Quận Hai Bà Trưng",
  "ward": "Phường Vĩnh Tuy",
  "wardId": 283
}]